{"name": "Manoj Mahajan", "location": "Nashik, Maharashtra, India", "company": "Proweta Sales Opc Private Limited", "plan": "Weekly Binary Plan, Uni Level Plan, Spill Plan, Single Leg Plan, Repurchase Plan", "phone": "9637599513", "profile_url": "https://www.mlmdiary.com/manoj-mahajan-5504784"}
{"name": "Monty88", "location": null, "company": null, "plan": null, "phone": "7418484848", "profile_url": "https://www.mlmdiary.com/monty88-214269"}
{"name": "Mark Stark", "location": "Houston, Texas, Usa", "company": "Softwares Spot", "plan": null, "phone": "8076343023", "profile_url": "https://www.mlmdiary.com/mark-stark-206189"}
{"name": "Hemraj", "location": "Jabalpur, Madhya Pradesh, India", "company": "Forsage", "plan": "Matrix Plan", "phone": "6262659695", "profile_url": "https://www.mlmdiary.com/hemraj-5505241"}
{"name": "Amit", "location": "Mohali, Sahibzada Ajit Singh Nagar, Punjab, India", "company": "The Madbrains Technologies, Crypto Exchange, Token Development, Smart Contract, MLM Software, MLM", "plan": "Other Plan", "phone": "8727979832", "profile_url": "https://www.mlmdiary.com/amit-5505694"}
{"name": "Himanshu Singh", "location": "Surat Junction, Railway Station Circle, Railway Station Area, Varachha, Surat, Gujarat, India", "company": "CryptoBux", "plan": "Investment Plan", "phone": "8758752945", "profile_url": "https://www.mlmdiary.com/himanshu-singh-5506148"}
{"name": "gelson Jose", "location": null, "company": null, "plan": null, "phone": "4248377732", "profile_url": "https://www.mlmdiary.com/gelson-jose-5504325"}
{"name": "mamalusifa jajalusifa", "location": null, "company": null, "plan": null, "phone": "747234371", "profile_url": "https://www.mlmdiary.com/mamalusifa-jajalusifa-5504783"}
{"name": "Karen Fernandez", "location": "Dubai, Dubai, United arab emirates", "company": "Private", "plan": null, "phone": "556779173", "profile_url": "https://www.mlmdiary.com/karen-fernandez-214038"}
{"name": "Virat kumar", "location": "Uttar Pradesh, Saharanpur, Uttar pradesh, India", "company": "Stepfarming(", "plan": "Uni Level Plan", "phone": "9719620599", "profile_url": "https://www.mlmdiary.com/virat-kumar-206188"}
{"name": "Shamsher Singh Patel", "location": "Bhopal, Madhya Pradesh, India", "company": "Xchangeon", "plan": "Referal Income Plan, Non Working Plan, Level Plan", "phone": "9131044913", "profile_url": "https://www.mlmdiary.com/shamsher-singh-patel-5505238"}
{"name": "Zaigham", "location": null, "company": null, "plan": null, "phone": "568190372", "profile_url": "https://www.mlmdiary.com/zaigham-5505693"}
{"name": "Ankit Kumar Sharma", "location": null, "company": null, "plan": null, "phone": "7289008331", "profile_url": "https://www.mlmdiary.com/ankit-kumar-sharma-5504324"}
{"name": "Vivek Jaiswal", "location": "Lucknow, Uttar Pradesh, India", "company": "AppWorks Technologies Pvt Ltd", "plan": "Affiliate Plan,Australian Binary Plan,Australian X-Up Plan,Autofill Plan,Autopool Plan, Binary,Board Plan,Breakaway Plan,Crowdfunding Plan,Cryptocurrency Plan,Daily Income,Differential Plan,Donation Plan,Generation Plan,Growth Plan,Hybrid Plan,Investment", "phone": "9076609907", "profile_url": "https://www.mlmdiary.com/vivek-jaiswal-5506147"}
{"name": "sam harries", "location": null, "company": null, "plan": null, "phone": "3083346808", "profile_url": "https://www.mlmdiary.com/sam-harries-214260"}
{"name": "SAMAR SINGH", "location": "Chandigarh, Chandigarh, India", "company": "KB SOFTWARE SOLUTIONS", "plan": "Binary,Board Plan,Breakaway Plan,Crowdfunding Plan,Cryptocurrency Plan,Daily Income,Differential Plan,Donation Plan,Generation Plan,Growth Plan,Hybrid Plan,Investment Plan,Level Plan,Matching Bonus Plan,Matrix Plan,Non Working Plan,Orbit Plan,Other Plan,", "phone": "9104718383", "profile_url": "https://www.mlmdiary.com/samar-singh-5504782"}
{"name": "AMARNATH MAHTO", "location": null, "company": null, "plan": null, "phone": null, "profile_url": "https://www.mlmdiary.com/amarnath-mahto-206230"}
{"name": "Farzana", "location": null, "company": null, "plan": null, "phone": "3247213672", "profile_url": "https://www.mlmdiary.com/farzana-5505237"}
{"name": "Kapu", "location": "Gurugram, Haryana, India", "company": "4Life Research, ?Achieve Everything?", "plan": "Other Plan", "phone": "7056519538", "profile_url": "https://www.mlmdiary.com/kapu-5505692"}
{"name": "ROSHNI SHAIKH", "location": "Lucknow, Uttar Pradesh, India", "company": "BIT MART", "plan": "Investment Plan", "phone": "6394423530", "profile_url": "https://www.mlmdiary.com/roshni-shaikh-5504323"}
{"name": "Rakesh Sakat", "location": "Pune, Maharashtra, India", "company": "Rgroove Connect Private Limited", "plan": "Uni Level Plan", "phone": "9075749191", "profile_url": "https://www.mlmdiary.com/rakesh-sakat-5506146"}
{"name": "Alex John", "location": null, "company": null, "plan": null, "phone": "2071937705", "profile_url": "https://www.mlmdiary.com/alex-john-214261"}
{"name": "Dhruba Lahkar", "location": "Guwahati, Assam, India", "company": null, "plan": null, "phone": "7577821944", "profile_url": "https://www.mlmdiary.com/dhruba-lahkar-206187"}
{"name": "Nilay", "location": "Jalpaiguri, West Bengal, India", "company": "MI Lifestyle Marketing Global Private Limited", "plan": "Hybrid Plan", "phone": "8537855331", "profile_url": "https://www.mlmdiary.com/nilay-5504781"}
{"name": "Farheen Aman", "location": null, "company": null, "plan": null, "phone": "9292208944", "profile_url": "https://www.mlmdiary.com/farheen-aman-5505236"}
{"name": "Ashish Kumar", "location": "Mainpuri, Uttar Pradesh, India", "company": "Asclepius Wellness Private Limited", "plan": "Level Plan", "phone": "7078945277", "profile_url": "https://www.mlmdiary.com/ashish-kumar-5504322"}
{"name": "Dev Sharma", "location": "Barmer, Rajasthan, India", "company": "Enagic India Kangen Water Private Limited", "plan": "Hybrid Plan", "phone": "8955843554", "profile_url": "https://www.mlmdiary.com/dev-sharma-5505691"}
{"name": "Sunil Verma", "location": "Delhi, Delhi, India", "company": null, "plan": null, "phone": "9821344489", "profile_url": "https://www.mlmdiary.com/sunil-verma-206186"}
{"name": "TEJNARAYAN MAHATO", "location": "Siliguri, Assam, India", "company": "Ginseng Marketing Pvt Ltd", "plan": "Binary,Matching Bonus Plan", "phone": "8207060938", "profile_url": "https://www.mlmdiary.com/tejnarayan-mahato-5506145"}
{"name": null, "location": null, "company": null, "plan": null, "phone": null, "profile_url": "https://www.mlmdiary.com/waseem-5504321"}
{"name": "Er. Avinash Kumar", "location": "Chandauli, Uttar pradesh, India", "company": "12345678", "plan": null, "phone": "7652084062", "profile_url": "https://www.mlmdiary.com/er--avinash-kumar-214037"}
{"name": "Derrick", "location": null, "company": null, "plan": null, "phone": "111250576", "profile_url": "https://www.mlmdiary.com/derrick-5505235"}
{"name": "Rohan", "location": "New Delhi, Delhi, India", "company": "Rohan", "plan": "Affiliate Plan,Referal Income Plan", "phone": "9911470381", "profile_url": "https://www.mlmdiary.com/rohan-5504780"}
{"name": "gfacilites", "location": null, "company": null, "plan": null, "phone": "971542173671", "profile_url": "https://www.mlmdiary.com/gfacilites-5505690"}
{"name": "Santosh", "location": null, "company": null, "plan": null, "phone": null, "profile_url": "https://www.mlmdiary.com/santosh-206231"}
{"name": "powire4495", "location": "Babain, Nagaland, Usa", "company": "powire4495", "plan": null, "phone": "7533403149", "profile_url": "https://www.mlmdiary.com/powire4495-214036"}
{"name": "Salik Ram Gupta", "location": "Gonda, Uttar Pradesh, India", "company": "Vestige Marketing Private Limited", "plan": "Generation Plan", "phone": "7800164961", "profile_url": "https://www.mlmdiary.com/salik-ram-gupta-5505234"}
{"name": "Adarsh Kumar", "location": "Kanpur, Uttar Pradesh, India", "company": "Asclepius Wellness Private Limited", "plan": "Weekly Binary Plan, Royalty Income Plan, Level Plan,  Binary", "phone": "9817374815", "profile_url": "https://www.mlmdiary.com/adarsh-kumar-5506144"}
